city,country,latitude,longitude,label,Collection
AUS: Lockhart River,Australia,-12.7861,143.3419,"Lockhart River, n = 1",This study
AUS: Cairns,Australia,-16.9203,145.771,"Cairns, n = 2",This study
AUS: Townsville,Australia,-19.259,146.8169,"Townsville, n = 19",This study
AUS: Rockhampton,Australia,-23.375,150.511673,"Rockhampton, n = 1",This study
AUS: Brisbane,Australia,-27.4705,153.026,"Brisbane, n = 8",This study
AUS: Sydney,Australia,-33.8688,151.2093,"Sydney, n = 12",This study
AUS: Sydney,Australia,-33.8688,150.5,"Sydney, n = 5",Public data
